     2              OBSERVATION DATA    G                   RINEX VERSION / TYPE
Leica GIS DataPro V3                    4-11-5 09:54        PGM / RUN BY / DATE
UNISINOS            UNISINOS                                OBSERVER / AGENCY
Base Unisinos                                               MARKER NAME
Base Unisinos                                               MARKER NUMBER
10731               LEICA               -Unknown-           REC # / TYPE / VERS
-Unknown-           -UNKNOWN-                               ANT # / TYPE
  3474822.4953 -4314465.5109 -3150521.9891                  APPROX POSITION XYZ
        0.0000        0.0000        0.0000                  ANTENNA: DELTA H/E/N
     1     1                                                WAVELENGTH FACT L1/2
     4    C1    L1    P2    L2                              # / TYPES OF OBSERV
  2005    11     3    16     0    0.000000                  TIME OF FIRST OBS
  2005    11     3    22    59   59.000000                  TIME OF LAST OBS
    13                                                      LEAP SECONDS
    18                                                      # OF SATELLITES
          C1    P1    L1    D1    P2    L2    D2            COMMENT
   G 1 11066     0 11066     0 11066 11066     0            PRN / # OF OBS
   G 2  2070     0  2070     0  2070  2070     0            PRN / # OF OBS
   G 3  2426     0  2426     0  2426  2426     0            PRN / # OF OBS
   G 4 11040     0 11040     0 11040 11040     0            PRN / # OF OBS
   G 5     0     0     0     0     0     0     0            PRN / # OF OBS
   G 6     0     0     0     0     0     0     0            PRN / # OF OBS
   G 7     0     0     0     0     0     0     0            PRN / # OF OBS
   G 8  8464     0  8464     0  8464  8464     0            PRN / # OF OBS
   G 9     0     0     0     0     0     0     0            PRN / # OF OBS
   G10  1504     0  1504     0  1504  1504     0            PRN / # OF OBS
   G11 15056     0 15056     0 15056 15056     0            PRN / # OF OBS
   G12     0     0     0     0     0     0     0            PRN / # OF OBS
   G13 17764     0 17764     0 17764 17764     0            PRN / # OF OBS
   G14  5366     0  5366     0  5366  5366     0            PRN / # OF OBS
   G15     0     0     0     0     0     0     0            PRN / # OF OBS
   G16  9794     0  9794     0  9613  9613     0            PRN / # OF OBS
   G17     0     0     0     0     0     0     0            PRN / # OF OBS
   G18     0     0     0     0     0     0     0            PRN / # OF OBS
   G19  6026     0  6026     0  6026  6026     0            PRN / # OF OBS
   G20 22826     0 22826     0 22826 22826     0            PRN / # OF OBS
   G21     0     0     0     0     0     0     0            PRN / # OF OBS
   G22  1197     0  1197     0  1197  1197     0            PRN / # OF OBS
   G23 23374     0 23374     0 23374 23374     0            PRN / # OF OBS
   G24 15510     0 15510     0 15510 15510     0            PRN / # OF OBS
   G25 13197     0 13197     0 13197 13197     0            PRN / # OF OBS
   G26     0     0     0     0     0     0     0            PRN / # OF OBS
   G27 12573     0 12573     0 12573 12573     0            PRN / # OF OBS
   G28  3304     0  3304     0  3304  3304     0            PRN / # OF OBS
   G29     0     0     0     0     0     0     0            PRN / # OF OBS
   G30     0     0     0     0     0     0     0            PRN / # OF OBS
   G31     0     0     0     0     0     0     0            PRN / # OF OBS
   G32     0     0     0     0     0     0     0            PRN / # OF OBS
                                                            END OF HEADER
  5 11  3 16  0  0.0000000  0  8G14G19G 1G 3G22G20G11G25
  21286668.455   111862187.04947  21286668.514    87165341.44247
  21267496.922   111761439.40447  21267495.926    87086832.71248
  20081605.043   105529566.39347  20081606.065    82230836.41048
  22593501.765   118729615.82047  22593505.077    92516581.20747
  23663167.973   124350739.80947  23663170.114    96896675.78146
  24096330.954   126627077.26446  24096336.220    98670478.13946
  22054493.203   115897167.96247  22054494.097    90309499.84847
  22879205.847   120231083.78046  22879210.454    93686594.71447
  5 11  3 16  0  1.0000000  0  8G14G19G 1G 3G22G20G11G25
  21287094.602   111864426.46847  21287094.694    87167086.45247
  21267803.630   111763051.10047  21267802.610    87088088.59548
  20081547.171   105529262.33347  20081548.200    82230599.46448
  22594078.284   118732645.51147  22594081.628    92518942.02547
  23663615.956   124353093.85347  23663618.078    96898510.12046
  24095943.315   126625040.26946  24095948.598    98668890.88946
  22053972.412   115894431.18447  22053973.307    90307367.30047
  22878655.332   120228190.80646  22878659.907    93684340.44047
  5 11  3 16  0  2.0000000  0  8G14G19G 1G 3G22G20G11G25
  21287520.816   111866666.30047  21287520.918    87168831.76947
  21268110.433   111764663.36047  21268109.412    87089344.89548
  20081489.431   105528958.90847  20081490.446    82230363.03448
  22594654.866   118735675.40947  22594658.198    92521302.98147
  23664063.925   124355447.88347  23664066.061    96900344.47446
  24095555.697   126623003.32346  24095560.971    98667303.68546
  22053451.664   115891694.63447  22053452.545    90305234.92947
  22878104.830   120225298.02047  22878109.447    93682086.33747
  5 11  3 16  0  3.0000000  0  8G14G19G 1G 3G22G20G11G25
  21287947.133   111868906.54847  21287947.216    87170577.38847
  21268417.329   111766276.17447  21268416.331    87090601.61548
  20081431.812   105528656.11947  20081432.811    82230127.09148
  22595231.486   118738705.50547  22595234.790    92523664.09247
  23664511.883   124357801.91647  23664513.990    96902178.72946
  24095168.082   126620966.45746  24095173.354    98665716.52246
  22052930.946   115888958.30647  22052931.827    90303102.73947
  22877554.377   120222405.43747  22877558.978    93679832.38547
